time,dt,pos_x,pos_y,pos_z,vel_x,vel_y,vel_z,acc_x,acc_y,acc_z,ang_vel_x,ang_vel_y,ang_vel_z,ang_acc_x,ang_acc_y,ang_acc_z,roll,pitch,yaw,q_w,q_x,q_y,q_z,pwm_1,pwm_2,pwm_3,pwm_4,total_thrust,cmd_thrust,cmd_roll_rate,cmd_pitch_rate,cmd_yaw_rate,x_ref,y_ref,z_ref,yaw_ref
0.0,0.0,-1.346074,-1.509054,-0.991101,-0.392875,0.349301,-0.016349,-0.039014,-0.043738,-9.851437,0.000126,0.00208,-0.000201,-0.000839,0.002017,-0.001306,0.0,0.0,0.0,0.70177,0.002975,-0.005384,0.712377,0.0,0.0,0.0,0.0,0.0,-0.730747,-0.001175,0.002562,-0.000741,-1.363468,-1.4632,-1.0,0.0
0.019991,0.019991,-1.354782,-1.500462,-0.991053,-0.39062,0.35131,-0.0173,-0.043454,-0.047992,-9.852429,0.000501,0.002144,-0.001512,0.000213,0.002338,-0.001979,0.0,0.0,0.0,0.701776,0.002956,-0.005377,0.712371,0.0,0.0,0.0,0.0,0.0,-0.730677,-0.002714,0.004834,-0.000773,-1.356135,-1.469999,-1.0,0.0
0.039989,0.019998,-1.360557,-1.494714,-0.991045,-0.389016,0.352639,-0.017943,-0.045468,-0.049655,-9.847733,0.000492,0.002745,-0.001246,-0.000276,0.003142,-0.002215,0.0,0.0,0.0,0.70178,0.00294,-0.005367,0.712367,0.0,0.0,0.0,0.0,0.0,-0.730628,-0.000767,0.003145,-0.000727,-1.348768,-1.476761,-1.0,0.0
0.059988,0.019999,-1.369159,-1.486012,-0.991056,-0.3867,0.354807,-0.018902,-0.044707,-0.050069,-9.854605,-2.1e-05,0.003112,-0.001379,-0.00031,0.002729,-0.002411,0.0,0.0,0.0,0.701786,0.002907,-0.005348,0.712362,0.0,0.0,0.0,0.0,0.0,-0.730544,-0.002274,0.005272,-0.000757,-1.341367,-1.483487,-1.0,0.0
0.079987,0.019999,-1.374872,-1.480173,-0.991085,-0.38508,0.356221,-0.019557,-0.036786,-0.047108,-9.854534,-0.000635,0.004011,-0.001432,0.000761,0.003139,-0.001218,0.0,0.0,0.0,0.701793,0.002883,-0.005338,0.712355,0.0,0.0,0.0,0.0,0.0,-0.730484,-0.00038,0.003573,-0.00072,-1.333933,-1.490175,-1.0,0.0
0.100197,0.02021,-1.383361,-1.471328,-0.991148,-0.382748,0.358452,-0.020518,-0.040171,-0.043166,-9.855554,-0.000147,0.00387,-0.001711,0.000304,0.003798,-0.001791,0.0,0.0,0.0,0.701803,0.00285,-0.005312,0.712345,0.0,0.0,0.0,0.0,0.0,-0.730423,0.001442,0.001857,-0.000686,-1.326466,-1.496826,-1.0,0.0
0.119988,0.019791,-1.388995,-1.465387,-0.991208,-0.38122,0.359891,-0.021169,-0.042135,-0.041102,-9.849064,0.000506,0.002646,-0.000847,-1.1e-05,0.003132,-0.001896,0.0,0.0,0.0,0.701806,0.002837,-0.005296,0.712343,0.0,0.0,0.0,0.0,0.0,-0.730324,4.6e-05,0.004163,-0.000709,-1.318965,-1.50344,-1.0,0.0
0.139988,0.02,-1.397404,-1.456411,-0.991323,-0.379043,0.362003,-0.021962,-0.048359,-0.047534,-9.840889,0.000574,0.003633,-0.000419,0.000751,0.003727,-0.000821,0.0,0.0,0.0,0.701808,0.002811,-0.005271,0.712341,0.0,0.0,0.0,0.0,0.0,-0.73026,0.001672,0.002519,-0.000678,-1.311431,-1.510016,-1.0,0.0
0.159988,0.02,-1.402975,-1.450374,-0.991416,-0.377524,0.363412,-0.022513,-0.051326,-0.038263,-9.844496,0.001104,0.00432,-0.001044,0.001132,0.005064,-5.7e-05,0.0,0.0,0.0,0.701811,0.002795,-0.005245,0.712339,0.0,0.0,0.0,0.0,0.0,-0.73017,0.0002,0.004937,-0.000692,-1.303865,-1.516554,-1.0,0.0
0.179956,0.019968,-1.405759,-1.447351,-0.991471,-0.376795,0.364077,-0.022781,-0.05191,-0.051909,-9.846841,0.000747,0.004997,-6.8e-05,0.000679,0.004406,-0.001695,0.0,0.0,0.0,0.701809,0.002783,-0.005231,0.71234,0.0,0.0,0.0,0.0,0.0,-0.730101,0.00173,0.003054,-0.000658,-1.296266,-1.523054,-1.0,0.0
0.200002,0.020046,-1.414075,-1.438252,-0.991682,-0.37447,0.366193,-0.0236,-0.041777,-0.04152,-9.836718,0.001455,0.006665,0.000127,0.001886,0.007445,0.000366,0.0,0.0,0.0,0.70181,0.002742,-0.005184,0.71234,0.0,0.0,0.0,0.0,0.0,-0.729987,0.000246,0.0052,-0.000682,-1.288635,-1.529517,-1.0,0.0
0.219998,0.019996,-1.422366,-1.429116,-0.991987,-0.372282,0.368242,-0.024321,-0.041717,-0.037514,-9.833092,0.001705,0.006149,-0.000886,0.001413,0.006278,-0.000782,0.0,0.0,0.0,0.70181,0.00271,-0.005122,0.71234,0.0,0.0,0.0,0.0,0.0,-0.729861,-0.001447,0.007331,-0.00069,-1.280971,-1.535941,-1.0,0.0
0.239999,0.020001,-1.427888,-1.423012,-0.992254,-0.370783,0.369586,-0.024819,-0.037864,-0.052398,-9.839035,0.00296,0.005247,0.000194,0.003249,0.005376,-2.9e-05,0.0,0.0,0.0,0.701808,0.002693,-0.005081,0.712343,0.0,0.0,0.0,0.0,0.0,-0.729762,-7.2e-05,0.005379,-0.000649,-1.273275,-1.542326,-1.0,0.0
0.259982,0.019983,-1.433412,-1.416894,-0.992535,-0.369415,0.370929,-0.025308,-0.046091,-0.050394,-9.833126,0.001823,0.005658,-0.000588,0.002509,0.007014,-0.000621,0.0,0.0,0.0,0.701808,0.002675,-0.005038,0.712343,0.0,0.0,0.0,0.0,0.0,-0.729663,0.001097,0.00333,-0.00061,-1.265548,-1.548673,-1.0,0.0
0.279988,0.020006,-1.441701,-1.407702,-0.99301,-0.367316,0.372846,-0.026082,-0.038597,-0.043452,-9.8292,0.0021,0.007426,0.000292,0.001761,0.007722,0.00049,0.0,0.0,0.0,0.701807,0.002635,-0.004963,0.712345,0.0,0.0,0.0,0.0,0.0,-0.729498,-0.00085,0.005157,-0.000611,-1.257789,-1.554982,-1.0,0.0
0.299999,0.020011,-1.447223,-1.401565,-0.99333,-0.365985,0.374134,-0.026585,-0.049531,-0.042072,-9.82622,0.002446,0.007763,-0.00085,0.003231,0.007577,-0.00133,0.0,0.0,0.0,0.701807,0.002608,-0.004908,0.712345,0.0,0.0,0.0,0.0,0.0,-0.729388,0.000156,0.002854,-0.000567,-1.249998,-1.561251,-1.0,0.0
0.319983,0.019984,-1.4555,-1.392349,-0.993825,-0.363994,0.375915,-0.027096,-0.045379,-0.044179,-9.820519,0.001449,0.007267,-0.000661,0.000899,0.007017,-0.001435,0.0,0.0,0.0,0.701809,0.002567,-0.004829,0.712344,0.0,0.0,0.0,0.0,0.0,-0.729242,-0.001967,0.004511,-0.000559,-1.242176,-1.567482,-1.0,0.0
0.339994,0.020011,-1.461007,-1.386225,-0.994173,-0.362722,0.377118,-0.027276,-0.043058,-0.039809,-9.815487,0.000134,0.005293,-0.000485,-0.000403,0.006363,-0.001307,0.0,0.0,0.0,0.701811,0.002541,-0.004794,0.712343,0.0,0.0,0.0,0.0,0.0,-0.729196,0.002169,-0.001866,-0.000467,-1.234323,-1.573673,-1.0,0.0
0.360005,0.020011,-1.469251,-1.377033,-0.994702,-0.360815,0.378766,-0.027591,-0.044594,-0.034869,-9.815916,-0.000211,0.005887,0.000703,-0.000145,0.005198,0.000612,0.0,0.0,0.0,0.701809,0.002492,-0.004746,0.712345,0.0,0.0,0.0,0.0,0.0,-0.729017,-0.002842,0.003833,-0.000504,-1.226439,-1.579825,-1.0,0.0
0.379986,0.019981,-1.474732,-1.370915,-0.995064,-0.359622,0.379838,-0.027861,-0.039639,-0.042804,-9.81304,-3.1e-05,0.004792,0.000325,0.000312,0.004553,-0.000397,0.0,0.0,0.0,0.701806,0.002464,-0.004717,0.712348,0.0,0.0,0.0,0.0,0.0,-0.728918,-0.001865,0.001404,-0.000454,-1.218525,-1.585937,-1.0,0.0
0.400002,0.020016,-1.482945,-1.361753,-0.99561,-0.357821,0.381426,-0.028203,-0.041687,-0.04312,-9.82266,-0.001648,0.005842,-0.001094,-0.001882,0.00607,-0.001651,0.0,0.0,0.0,0.70181,0.00242,-0.004683,0.712345,0.0,0.0,0.0,0.0,0.0,-0.728777,-0.003916,0.002982,-0.000444,-1.21058,-1.59201,-1.0,0.0
0.419999,0.019997,-1.49114,-1.352596,-0.996149,-0.355974,0.382975,-0.028475,-0.042582,-0.042914,-9.814595,-0.000896,0.004012,0.000129,-0.000857,0.003808,-3.7e-05,0.0,0.0,0.0,0.701815,0.002375,-0.004653,0.71234,0.0,0.0,0.0,0.0,0.0,-0.728728,0.000211,-0.00349,-0.000344,-1.202605,-1.598043,-1.0,0.0
0.439985,0.019986,-1.496591,-1.346496,-0.996517,-0.354805,0.38398,-0.028575,-0.045696,-0.038539,-9.808465,-0.000881,0.002652,-0.001109,-0.001084,0.002777,-0.000652,0.0,0.0,0.0,0.701821,0.002356,-0.004641,0.712334,0.0,0.0,0.0,0.0,0.0,-0.728599,-0.001819,-0.001878,-0.000329,-1.1946,-1.604036,-1.0,0.0
0.460005,0.02002,-1.502038,-1.340406,-0.996889,-0.35356,0.384909,-0.028604,-0.053181,-0.048456,-9.810352,-0.000627,0.001819,-0.000385,-0.002033,0.001802,-0.001534,0.0,0.0,0.0,0.701823,0.00234,-0.004633,0.712332,0.0,0.0,0.0,0.0,0.0,-0.728482,-0.003936,-0.000236,-0.000316,-1.186565,-1.609989,-1.0,0.0
0.480006,0.020001,-1.510208,-1.331277,-0.997456,-0.351655,0.386229,-0.028687,-0.043034,-0.045121,-9.804024,-0.001412,0.002748,-0.000133,-0.002135,0.002944,-0.000844,0.0,0.0,0.0,0.701831,0.002311,-0.004626,0.712325,0.0,0.0,0.0,0.0,0.0,-0.728401,-0.002901,-0.002703,-0.000258,-1.1785,-1.615902,-1.0,0.0
0.500017,0.020011,-1.515639,-1.32519,-0.997831,-0.350446,0.387083,-0.028775,-0.046916,-0.049444,-9.810984,-0.002349,0.002719,-0.000557,-0.002493,0.002153,8.1e-05,0.0,0.0,0.0,0.701838,0.002288,-0.004617,0.712318,0.0,0.0,0.0,0.0,0.0,-0.72832,-0.002061,-0.005284,-0.000204,-1.170406,-1.621774,-1.0,0.0
0.519998,0.019981,-1.523759,-1.316058,-0.998387,-0.348486,0.388352,-0.028804,-0.045117,-0.038551,-9.804535,-0.000115,-0.000793,0.000163,-0.001046,-0.001211,-0.000361,0.0,0.0,0.0,0.701842,0.002277,-0.004614,0.712315,0.0,0.0,0.0,0.0,0.0,-0.728198,-0.004091,-0.003781,-0.000187,-1.162282,-1.627606,-1.0,0.0
0.539998,0.02,-1.529195,-1.309986,-0.998756,-0.347346,0.389136,-0.028773,-0.03815,-0.044258,-9.796335,-0.002306,-0.00212,-0.000167,-0.001224,-0.003337,-0.000562,0.0,0.0,0.0,0.701845,0.002276,-0.00463,0.712311,0.0,0.0,0.0,0.0,0.0,-0.728129,-0.003383,-0.0062,-0.000133,-1.15413,-1.633397,-1.0,0.0
0.559991,0.019993,-1.537345,-1.300851,-0.999306,-0.345492,0.390343,-0.028658,-0.043492,-0.04538,-9.795877,-0.002919,-0.001773,-0.000483,-0.003279,-0.001395,-0.000398,0.0,0.0,0.0,0.701855,0.002276,-0.004666,0.712301,0.0,0.0,0.0,0.0,0.0,-0.728029,-0.005485,-0.004266,-0.000113,-1.145948,-1.639147,-1.0,0.0
0.579989,0.019998,-1.542785,-1.294749,-0.999679,-0.344348,0.391196,-0.028425,-0.044677,-0.037271,-9.79138,-0.003505,-0.003199,-0.000374,-0.003181,-0.002572,-6.1e-05,0.0,0.0,0.0,0.701859,0.002274,-0.004698,0.712297,0.0,0.0,0.0,0.0,0.0,-0.727974,-0.004718,-0.006599,-6.1e-05,-1.137738,-1.644856,-1.0,0.0
0.599993,0.020004,-1.550948,-1.285586,-1.000232,-0.342554,0.392386,-0.028162,-0.045937,-0.046226,-9.786109,-0.003342,-0.002219,-0.000118,-0.003378,-0.002002,-0.000139,0.0,0.0,0.0,0.701869,0.002268,-0.004741,0.712286,0.0,0.0,0.0,0.0,0.0,-0.727886,-0.006861,-0.004638,-3.9e-05,-1.1295,-1.650524,-1.0,0.0
0.619994,0.020001,-1.556382,-1.279462,-1.000594,-0.341357,0.393225,-0.028024,-0.04256,-0.048313,-9.797885,-0.004316,-0.003944,-0.000705,-0.005443,-0.003334,-0.000564,0.0,0.0,0.0,0.701878,0.002266,-0.00478,0.712278,0.0,0.0,0.0,0.0,0.0,-0.727831,-0.00613,-0.006997,1.3e-05,-1.121233,-1.656151,-1.0,0.0
0.639997,0.020003,-1.564492,-1.270243,-1.001129,-0.33951,0.394516,-0.027745,-0.046025,-0.051516,-9.794834,-0.004166,-0.002842,-0.000621,-0.004605,-0.003397,-0.000986,0.0,0.0,0.0,0.70189,0.002252,-0.004842,0.712265,0.0,0.0,0.0,0.0,0.0,-0.727755,-0.008087,-0.004919,3e-05,-1.112938,-1.661736,-1.0,0.0
0.659991,0.019994,-1.569876,-1.264056,-1.001507,-0.338258,0.395344,-0.027509,-0.042511,-0.046372,-9.787818,-0.005056,-0.004792,-7.9e-05,-0.005938,-0.003924,-0.000679,0.0,0.0,0.0,0.701896,0.002254,-0.004895,0.712259,0.0,0.0,0.0,0.0,0.0,-0.727698,-0.007298,-0.007168,8e-05,-1.104616,-1.66728,-1.0,0.0
0.680008,0.020017,-1.577922,-1.254714,-1.002064,-0.336446,0.396749,-0.027163,-0.049901,-0.051682,-9.785855,-0.006495,-0.004894,-5.3e-05,-0.006157,-0.004363,-0.000376,0.0,0.0,0.0,0.701903,0.002243,-0.004976,0.712252,0.0,0.0,0.0,0.0,0.0,-0.727621,-0.009187,-0.004785,8.8e-05,-1.096266,-1.672783,-1.0,0.0
0.699996,0.019988,-1.58327,-1.248413,-1.002424,-0.33517,0.397661,-0.026922,-0.042443,-0.042872,-9.787947,-0.007315,-0.004616,-7e-05,-0.008209,-0.005749,-0.000955,0.0,0.0,0.0,0.701907,0.002231,-0.005039,0.712247,0.0,0.0,0.0,0.0,0.0,-0.727569,-0.00825,-0.006813,0.00013,-1.087888,-1.678243,-1.0,0.0
0.720006,0.02001,-1.591261,-1.238903,-1.002951,-0.33328,0.399222,-0.026483,-0.051608,-0.035103,-9.787731,-0.006235,-0.004558,0.000197,-0.005684,-0.005432,-0.00081,0.0,0.0,0.0,0.701915,0.002222,-0.005132,0.712239,0.0,0.0,0.0,0.0,0.0,-0.7275,-0.009976,-0.00415,0.000134,-1.079483,-1.683661,-1.0,0.0
0.740003,0.019997,-1.596567,-1.232508,-1.003296,-0.332038,0.400256,-0.026193,-0.050045,-0.042443,-9.777966,-0.00586,-0.005737,-6.2e-05,-0.005668,-0.005585,-6e-06,0.0,0.0,0.0,0.701919,0.002223,-0.005195,0.712235,0.0,0.0,0.0,0.0,0.0,-0.727457,-0.009205,-0.005982,0.000177,-1.071052,-1.689038,-1.0,0.0
0.759988,0.019985,-1.604494,-1.222867,-1.003793,-0.330178,0.401868,-0.025768,-0.04216,-0.043579,-9.783146,-0.006875,-0.00554,-0.000841,-0.007289,-0.005391,-0.000754,0.0,0.0,0.0,0.701922,0.002218,-0.005299,0.71223,0.0,0.0,0.0,0.0,0.0,-0.727397,-0.010999,-0.003052,0.000175,-1.062593,-1.694372,-1.0,0.0
0.779998,0.02001,-1.612367,-1.213154,-1.004252,-0.328195,0.403521,-0.025145,-0.049437,-0.039819,-9.77995,-0.008061,-0.003689,-0.000503,-0.008352,-0.003466,-0.0006,0.0,0.0,0.0,0.701927,0.002196,-0.005398,0.712225,0.0,0.0,0.0,0.0,0.0,-0.727366,-0.010153,-0.004738,0.00021,-1.054108,-1.699664,-1.0,0.0
0.8,0.020002,-1.617545,-1.206639,-1.004535,-0.326898,0.404573,-0.024732,-0.048711,-0.037032,-9.774386,-0.009346,-0.002578,-0.000447,-0.009301,-0.0018,-0.0003,0.0,0.0,0.0,0.70193,0.002167,-0.005468,0.712221,0.0,0.0,0.0,0.0,0.0,-0.727332,-0.011606,-0.001891,0.000205,-1.045596,-1.704913,-1.0,0.0
0.819999,0.019999,-1.622711,-1.200108,-1.004807,-0.325537,0.405725,-0.024385,-0.046416,-0.035967,-9.773531,-0.008358,-0.003113,0.000655,-0.009457,-0.002516,0.000182,0.0,0.0,0.0,0.701927,0.002136,-0.005535,0.712224,0.0,0.0,0.0,0.0,0.0,-0.72731,-0.010497,-0.003804,0.000238,-1.037059,-1.71012,-1.0,0.0
0.839989,0.01999,-1.630375,-1.190269,-1.005143,-0.323578,0.407461,-0.023696,-0.046217,-0.032525,-9.776724,-0.009788,-0.002951,-4.2e-05,-0.010222,-0.003201,-0.000477,0.0,0.0,0.0,0.701925,0.002082,-0.005643,0.712225,0.0,0.0,0.0,0.0,0.0,-0.727294,-0.011715,-0.000987,0.000224,-1.028495,-1.715284,-1.0,0.0
0.859991,0.020002,-1.635445,-1.183693,-1.005352,-0.322098,0.408615,-0.023217,-0.047676,-0.045243,-9.77306,-0.010472,-0.002604,0.000219,-0.009538,-0.003068,8.1e-05,0.0,0.0,0.0,0.701926,0.002043,-0.005717,0.712224,0.0,0.0,0.0,0.0,0.0,-0.727287,-0.010548,-0.002858,0.000255,-1.019906,-1.720405,-1.0,0.0
0.880005,0.020014,-1.642988,-1.173805,-1.005663,-0.319846,0.410351,-0.02248,-0.054051,-0.039554,-9.774673,-0.010637,-0.003287,0.000523,-0.011243,-0.003433,0.000355,0.0,0.0,0.0,0.701922,0.001982,-0.005832,0.712227,0.0,0.0,0.0,0.0,0.0,-0.727292,-0.011334,-4.7e-05,0.000228,-1.011291,-1.725482,-1.0,0.0
0.899996,0.019991,-1.647965,-1.167169,-1.005889,-0.318356,0.4115,-0.022027,-0.062497,-0.038107,-9.778435,-0.011153,-0.002346,-0.000198,-0.010548,-0.001997,-0.001698,0.0,0.0,0.0,0.701922,0.001937,-0.005914,0.712227,0.0,0.0,0.0,0.0,0.0,-0.727285,-0.009957,-0.001907,0.000252,-1.002651,-1.730517,-1.0,0.0
0.919988,0.019992,-1.655381,-1.157174,-1.006217,-0.316033,0.413104,-0.021342,-0.057662,-0.031977,-9.774796,-0.01086,-0.000926,-0.000768,-0.011013,-0.000835,-0.000628,0.0,0.0,0.0,0.701928,0.001863,-0.006017,0.71222,0.0,0.0,0.0,0.0,0.0,-0.727273,-0.010692,0.000808,0.000232,-0.993986,-1.735509,-1.0,0.0
0.939989,0.020001,-1.660281,-1.150476,-1.00642,-0.31438,0.414248,-0.020873,-0.054717,-0.038639,-9.783375,-0.009947,-0.000598,0.000661,-0.01066,0.000474,0.000142,0.0,0.0,0.0,0.701925,0.001809,-0.006079,0.712223,0.0,0.0,0.0,0.0,0.0,-0.727274,-0.00928,-0.001273,0.000256,-0.985296,-1.740457,-1.0,0.0
0.959985,0.019996,-1.667572,-1.140395,-1.006711,-0.311858,0.41594,-0.020101,-0.052758,-0.036905,-9.770592,-0.00902,-0.001578,-0.000426,-0.009162,-0.001416,-0.001172,0.0,0.0,0.0,0.701924,0.001738,-0.006173,0.712223,0.0,0.0,0.0,0.0,0.0,-0.72727,-0.009877,0.001372,0.000222,-0.976582,-1.745362,-1.0,0.0
0.97999,0.020005,-1.672402,-1.133652,-1.006899,-0.310194,0.417158,-0.019653,-0.039605,-0.034602,-9.781137,-0.009843,-0.00077,-0.000568,-0.009707,0.000733,-0.000916,0.0,0.0,0.0,0.701925,0.001694,-0.006235,0.712222,0.0,0.0,0.0,0.0,0.0,-0.727278,-0.008582,-0.000576,0.000242,-0.967843,-1.750223,-1.0,0.0
0.99999,0.02,-1.679546,-1.123475,-1.007215,-0.307584,0.419107,-0.019077,-0.049106,-0.037032,-9.773317,-0.009236,0.000637,0.000647,-0.009131,-0.000135,0.000661,0.0,0.0,0.0,0.701925,0.001608,-0.006314,0.712221,0.0,0.0,0.0,0.0,0.0,-0.727267,-0.009116,0.002194,0.000205,-0.95908,-1.75504,-1.0,0.0
1.019992,0.020002,-1.684286,-1.116669,-1.007427,-0.305797,0.420313,-0.018619,-0.044314,-0.039853,-9.779354,-0.008701,0.000729,-0.000106,-0.009368,0.000698,-0.000198,0.0,0.0,0.0,0.701923,0.001555,-0.006364,0.712223,0.0,0.0,0.0,0.0,0.0,-0.727259,-0.007732,0.000125,0.000218,-0.950292,-1.759814,-1.0,0.0
1.039996,0.020004,-1.691301,-1.106369,-1.007796,-0.303072,0.422269,-0.017967,-0.045255,-0.033864,-9.773849,-0.008195,0.001705,0.000379,-0.007918,0.001667,-8.9e-05,0.0,0.0,0.0,0.701921,0.001474,-0.006432,0.712225,0.0,0.0,0.0,0.0,0.0,-0.727241,-0.008234,0.002838,0.000176,-0.941482,-1.764543,-1.0,0.0
1.059989,0.019993,-1.695948,-1.099467,-1.008053,-0.30127,0.423483,-0.017565,-0.048234,-0.03112,-9.783343,-0.008004,0.001289,-0.001511,-0.007224,0.000443,-0.000905,0.0,0.0,0.0,0.701922,0.001426,-0.006473,0.712223,0.0,0.0,0.0,0.0,0.0,-0.72723,-0.006945,0.000765,0.000188,-0.932647,-1.769228,-1.0,0.0
1.079997,0.020008,-1.702872,-1.089061,-1.008454,-0.29868,0.425322,-0.016893,-0.051505,-0.032296,-9.770715,-0.007487,0.000936,-0.001274,-0.007894,0.001007,-0.000673,0.0,0.0,0.0,0.701926,0.00136,-0.00654,0.712219,0.0,0.0,0.0,0.0,0.0,-0.727201,-0.007589,0.003629,0.000153,-0.923789,-1.77387,-1.0,0.0
1.099993,0.019996,-1.707525,-1.082109,-1.008755,-0.29692,0.426552,-0.01642,-0.052373,-0.03195,-9.773567,-0.007546,3.5e-05,0.000289,-0.008471,0.000733,-8.9e-05,0.0,0.0,0.0,0.701924,0.001315,-0.006586,0.71222,0.0,0.0,0.0,0.0,0.0,-0.727185,-0.006444,0.001607,0.000173,-0.914908,-1.778466,-1.0,0.0
1.119997,0.020004,-1.714482,-1.07165,-1.009228,-0.294216,0.428368,-0.015789,-0.053652,-0.037165,-9.77809,-0.00621,0.001911,-0.000457,-0.006145,0.001898,-0.000517,0.0,0.0,0.0,0.701923,0.001244,-0.006638,0.712221,0.0,0.0,0.0,0.0,0.0,-0.727163,-0.005325,-0.000366,0.000188,-0.906005,-1.783019,-1.0,0.0
1.139992,0.019995,-1.719115,-1.064654,-1.009579,-0.292453,0.429612,-0.015472,-0.04759,-0.025491,-9.781881,-0.005233,0.00269,-0.000703,-0.006163,0.003162,-0.000177,0.0,0.0,0.0,0.701924,0.001198,-0.006661,0.71222,0.0,0.0,0.0,0.0,0.0,-0.727105,-0.006303,0.00232,0.000149,-0.897078,-1.787526,-1.0,0.0
1.159983,0.019991,-1.72606,-1.054133,-1.010112,-0.289841,0.43141,-0.01485,-0.049991,-0.036448,-9.770511,-0.005065,0.001973,-4.5e-05,-0.004784,0.001661,-0.00068,0.0,0.0,0.0,0.701923,0.001134,-0.00669,0.712221,0.0,0.0,0.0,0.0,0.0,-0.727067,-0.005516,0.000159,0.00017,-0.88813,-1.791989,-1.0,0.0
1.179993,0.02001,-1.730673,-1.047101,-1.010469,-0.288075,0.432545,-0.01434,-0.042122,-0.033354,-9.772861,-0.00514,0.002341,-0.000243,-0.005223,0.00283,-0.000127,0.0,0.0,0.0,0.701926,0.001096,-0.006712,0.712218,0.0,0.0,0.0,0.0,0.0,-0.727019,-0.006821,0.002795,0.000139,-0.879159,-1.796408,-1.0,0.0
1.199995,0.020002,-1.737559,-1.036513,-1.011052,-0.285388,0.434407,-0.013783,-0.044296,-0.02724,-9.777525,-0.005353,0.002316,-0.000454,-0.004993,0.001963,-0.000529,0.0,0.0,0.0,0.70193,0.001035,-0.006738,0.712214,0.0,0.0,0.0,0.0,0.0,-0.726957,-0.008154,0.005422,0.000107,-0.870166,-1.800781,-1.0,0.0
1.219995,0.02,-1.742122,-1.029435,-1.011448,-0.283618,0.435611,-0.013274,-0.052142,-0.026839,-9.782589,-0.005528,0.003641,0.001057,-0.005278,0.004278,0.000818,0.0,0.0,0.0,0.701927,0.00099,-0.006755,0.712216,0.0,0.0,0.0,0.0,0.0,-0.726918,-0.007474,0.00331,0.000126,-0.861151,-1.805109,-1.0,0.0
1.239988,0.019993,-1.748933,-1.018788,-1.012041,-0.280959,0.437326,-0.012663,-0.053834,-0.031993,-9.766785,-0.00512,0.004041,0.001039,-0.005257,0.003977,0.000526,0.0,0.0,0.0,0.701922,0.000912,-0.006774,0.712221,0.0,0.0,0.0,0.0,0.0,-0.726844,-0.00878,0.005759,9.4e-05,-0.852115,-1.809392,-1.0,0.0
1.259984,0.019996,-1.753439,-1.011659,-1.012448,-0.279125,0.438419,-0.012212,-0.058966,-0.035777,-9.766947,-0.006601,0.005228,7.5e-05,-0.006149,0.006059,0.000118,0.0,0.0,0.0,0.701921,0.000852,-0.006783,0.712223,0.0,0.0,0.0,0.0,0.0,-0.726804,-0.008127,0.003368,0.000112,-0.843057,-1.81363,-1.0,0.0
1.279979,0.019995,-1.760141,-1.000941,-1.013026,-0.276339,0.440067,-0.011523,-0.039491,-0.030827,-9.764079,-0.007096,0.005702,0.000325,-0.008558,0.004429,-1.6e-05,0.0,0.0,0.0,0.701922,0.00075,-0.006797,0.712221,0.0,0.0,0.0,0.0,0.0,-0.726742,-0.009178,0.005567,7.8e-05,-0.833978,-1.817823,-1.0,0.0
1.299988,0.020009,-1.764546,-0.993768,-1.013453,-0.274409,0.441248,-0.010979,-0.051421,-0.039822,-9.767028,-0.007073,0.005527,0.000609,-0.005861,0.004774,0.00079,0.0,0.0,0.0,0.70192,0.00068,-0.006813,0.712223,0.0,0.0,0.0,0.0,0.0,-0.726696,-0.008304,0.003156,9.2e-05,-0.824879,-1.82197,-1.0,0.0
1.319986,0.019998,-1.771096,-0.982993,-1.014083,-0.271481,0.442875,-0.010302,-0.048316,-0.035828,-9.768156,-0.006935,0.005762,0.000267,-0.006475,0.005977,-0.000264,0.0,0.0,0.0,0.701921,0.00058,-0.006826,0.712222,0.0,0.0,0.0,0.0,0.0,-0.726631,-0.0092,0.005396,5.1e-05,-0.815759,-1.826072,-1.0,0.0
1.339976,0.01999,-1.777563,-0.972209,-1.014735,-0.268538,0.444439,-0.009714,-0.056804,-0.034328,-9.770206,-0.007737,0.005994,-9.9e-05,-0.008059,0.006075,1.3e-05,0.0,0.0,0.0,0.701921,0.000473,-0.00684,0.712222,0.0,0.0,0.0,0.0,0.0,-0.726572,-0.00831,0.002869,6.4e-05,-0.806618,-1.830128,-1.0,0.0
1.359976,0.02,-1.781816,-0.96501,-1.01519,-0.266506,0.445253,-0.009272,-0.062026,-0.031808,-9.762019,-0.007489,0.005891,-7.3e-05,-0.007552,0.006034,0.000107,0.0,0.0,0.0,0.701924,0.000399,-0.006849,0.712219,0.0,0.0,0.0,0.0,0.0,-0.726487,-0.009026,0.004849,2.5e-05,-0.797457,-1.834138,-1.0,0.0
1.379935,0.019959,-1.788136,-0.954198,-1.01584,-0.26355,0.446745,-0.00852,-0.050088,-0.033486,-9.767737,-0.007135,0.005037,-0.000161,-0.007676,0.005608,-0.000394,0.0,0.0,0.0,0.701931,0.00029,-0.006873,0.712212,0.0,0.0,0.0,0.0,0.0,-0.726441,-0.008009,0.002185,4.1e-05,-0.788277,-1.838102,-1.0,0.0
1.399988,0.020053,-1.792296,-0.946985,-1.016277,-0.261511,0.447716,-0.008013,-0.047434,-0.031687,-9.770769,-0.006552,0.005075,-0.000126,-0.006886,0.005363,-0.000506,0.0,0.0,0.0,0.701934,0.000223,-0.006882,0.712209,0.0,0.0,0.0,0.0,0.0,-0.726374,-0.008654,0.004239,4e-06,-0.779077,-1.842021,-1.0,0.0
1.419922,0.019934,-1.794365,-0.943374,-1.016487,-0.260509,0.448199,-0.007755,-0.057497,-0.03518,-9.765945,-0.005657,0.004353,-0.000154,-0.006587,0.004794,-0.000922,0.0,0.0,0.0,0.701936,0.000195,-0.006886,0.712207,0.0,0.0,0.0,0.0,0.0,-0.726325,-0.007789,0.001666,1.8e-05,-0.769857,-1.845893,-1.0,0.0
1.439975,0.020053,-1.80048,-0.932518,-1.017139,-0.257467,0.449514,-0.006844,-0.055442,-0.027994,-9.758785,-0.006035,0.005553,-0.000565,-0.005863,0.00607,-0.00096,0.0,0.0,0.0,0.701939,9.5e-05,-0.006894,0.712204,0.0,0.0,0.0,0.0,0.0,-0.726269,-0.008417,0.003587,-2.1e-05,-0.760618,-1.849719,-1.0,0.0
1.459972,0.019997,-1.804514,-0.925267,-1.01756,-0.255255,0.450401,-0.006259,-0.056869,-0.029839,-9.756308,-0.008738,0.004092,-0.000453,-0.008768,0.003437,3.7e-05,0.0,0.0,0.0,0.701945,2.1e-05,-0.006915,0.712198,0.0,0.0,0.0,0.0,0.0,-0.726232,-0.007186,0.00094,-1.3e-05,-0.75136,-1.853499,-1.0,0.0
1.47998,0.020008,-1.808504,-0.918006,-1.017972,-0.253134,0.45124,-0.005738,-0.062316,-0.02527,-9.751454,-0.007718,0.003132,0.00083,-0.006696,0.003828,-0.00148,0.0,0.0,0.0,0.701945,-4.2e-05,-0.006944,0.712198,0.0,0.0,0.0,0.0,0.0,-0.726193,-0.006077,-0.001605,-4e-06,-0.742083,-1.857233,-1.0,0.0
1.499981,0.020001,-1.814424,-0.907089,-1.018596,-0.249997,0.452447,-0.00482,-0.054745,-0.030081,-9.760389,-0.005915,0.003689,-0.000554,-0.006221,0.003176,-0.00075,0.0,0.0,0.0,0.701953,-0.000129,-0.00697,0.712189,0.0,0.0,0.0,0.0,0.0,-0.726145,-0.006527,0.000508,-4.3e-05,-0.732787,-1.86092,-1.0,0.0
1.520003,0.020022,-1.818329,-0.899795,-1.018997,-0.247826,0.453303,-0.004216,-0.052852,-0.021122,-9.755108,-0.005389,0.001892,9.5e-05,-0.00616,0.001125,-0.000851,0.0,0.0,0.0,0.701957,-0.000175,-0.00699,0.712185,0.0,0.0,0.0,0.0,0.0,-0.726117,-0.005582,-0.001957,-3.4e-05,-0.723474,-1.86456,-1.0,0.0
1.539993,0.01999,-1.824125,-0.888852,-1.019626,-0.244643,0.45457,-0.003267,-0.049414,-0.029933,-9.749727,-0.004696,0.00183,9.2e-05,-0.005141,0.00221,7.4e-05,0.0,0.0,0.0,0.701963,-0.000233,-0.007021,0.712179,0.0,0.0,0.0,0.0,0.0,-0.726074,-0.006158,0.000461,-7.6e-05,-0.714142,-1.868155,-1.0,0.0
1.559976,0.019983,-1.829851,-0.877889,-1.020211,-0.241395,0.455825,-0.002208,-0.049917,-0.032397,-9.746057,-0.004832,-3.6e-05,-0.00041,-0.005315,6.5e-05,-0.000753,0.0,0.0,0.0,0.701968,-0.000281,-0.007057,0.712174,0.0,0.0,0.0,0.0,0.0,-0.726049,-0.006704,0.002975,-0.000122,-0.704792,-1.871702,-1.0,0.0
1.579975,0.019999,-1.833628,-0.870572,-1.0206,-0.239238,0.456546,-0.001511,-0.051486,-0.028126,-9.75232,-0.004728,0.000161,0.000841,-0.003611,5.6e-05,-0.001347,0.0,0.0,0.0,0.701967,-0.000312,-0.007088,0.712174,0.0,0.0,0.0,0.0,0.0,-0.726032,-0.005826,0.000589,-0.000112,-0.695425,-1.875202,-1.0,0.0
1.599972,0.019997,-1.839218,-0.859581,-1.021163,-0.236058,0.457669,-0.000395,-0.056833,-0.013464,-9.741291,-0.004667,0.001401,-0.000251,-0.004561,0.001462,-0.000562,0.0,0.0,0.0,0.701979,-0.000356,-0.007114,0.712162,0.0,0.0,0.0,0.0,0.0,-0.726018,-0.006457,0.002969,-0.000149,-0.68604,-1.878656,-1.0,0.0
1.619992,0.02002,-1.842902,-0.852241,-1.021525,-0.233965,0.45851,0.000296,-0.055632,-0.022448,-9.747252,-0.004744,0.003312,-0.000396,-0.00478,0.003271,-0.000359,0.0,0.0,0.0,0.701983,-0.0004,-0.007122,0.712158,0.0,0.0,0.0,0.0,0.0,-0.726005,-0.005709,0.000373,-0.000134,-0.676638,-1.882063,-1.0,0.0
1.639972,0.01998,-1.848338,-0.841211,-1.022047,-0.230691,0.459732,0.001389,-0.046829,-0.029097,-9.746083,-0.004419,0.003277,0.000671,-0.004438,0.003729,0.000312,0.0,0.0,0.0,0.701988,-0.000464,-0.007134,0.712153,0.0,0.0,0.0,0.0,0.0,-0.725994,-0.006178,0.002566,-0.00018,-0.66722,-1.885422,-1.0,0.0
1.65997,0.019998,-1.851913,-0.833845,-1.022372,-0.228511,0.460555,0.002155,-0.053386,-0.031942,-9.739165,-0.004877,0.003718,-0.000816,-0.003996,0.003938,-0.00035,0.0,0.0,0.0,0.701995,-0.000511,-0.007141,0.712145,0.0,0.0,0.0,0.0,0.0,-0.725995,-0.005328,-8.5e-05,-0.000167,-0.657784,-1.888735,-1.0,0.0
1.679975,0.020005,-1.857202,-0.822779,-1.022789,-0.225211,0.461675,0.003326,-0.053112,-0.0229,-9.748359,-0.004116,0.003079,7.4e-05,-0.003231,0.003281,9.8e-05,0.0,0.0,0.0,0.70201,-0.000567,-0.007153,0.712131,0.0,0.0,0.0,0.0,0.0,-0.726015,-0.005968,0.002056,-0.000223,-0.648332,-1.892,-1.0,0.0
1.699981,0.020006,-1.860693,-0.8154,-1.023065,-0.223007,0.462414,0.004098,-0.058454,-0.035015,-9.752398,-0.004132,0.00339,0.000654,-0.003731,0.002962,-0.000447,0.0,0.0,0.0,0.702016,-0.000605,-0.007158,0.712125,0.0,0.0,0.0,0.0,0.0,-0.726026,-0.00501,-0.000555,-0.000194,-0.638864,-1.895218,-1.0,0.0
1.71998,0.019999,-1.865867,-0.804327,-1.023439,-0.219655,0.46345,0.005011,-0.053646,-0.029012,-9.755077,-0.004099,0.001432,-0.000731,-0.004207,0.001903,-0.001298,0.0,0.0,0.0,0.702025,-0.000656,-0.007178,0.712116,0.0,0.0,0.0,0.0,0.0,-0.726032,-0.005371,0.001672,-0.000239,-0.62938,-1.898389,-1.0,0.0
1.739983,0.020003,-1.869277,-0.796953,-1.023685,-0.217401,0.46411,0.00571,-0.056383,-0.026577,-9.749598,-0.004338,0.001641,-0.000836,-0.004939,0.001188,0.000325,0.0,0.0,0.0,0.702036,-0.00069,-0.007188,0.712105,0.0,0.0,0.0,0.0,0.0,-0.726045,-0.004584,-0.001013,-0.000226,-0.619881,-1.901512,-1.0,0.0
1.759975,0.019992,-1.874322,-0.785892,-1.024017,-0.214088,0.465051,0.006792,-0.054862,-0.023024,-9.747566,-0.003841,-0.000974,-0.000649,-0.003601,-0.001125,-0.00058,0.0,0.0,0.0,0.702045,-0.000723,-0.007226,0.712096,0.0,0.0,0.0,0.0,0.0,-0.726077,-0.004942,0.001378,-0.000268,-0.610365,-1.904588,-1.0,0.0
1.779982,0.020007,-1.877644,-0.778511,-1.024208,-0.211827,0.465681,0.007606,-0.053176,-0.023012,-9.746016,-0.003157,-0.000314,-0.000813,-0.003317,-0.000346,0.000631,0.0,0.0,0.0,0.702056,-0.000737,-0.007246,0.712085,0.0,0.0,0.0,0.0,0.0,-0.726113,-0.004228,-0.001113,-0.000255,-0.600835,-1.907616,-1.0,0.0
1.799986,0.020004,-1.882545,-0.767439,-1.024401,-0.208554,0.46666,0.008786,-0.061638,-0.018347,-9.744226,-0.003106,0.000678,0.000569,-0.003078,0.001303,0.000253,0.0,0.0,0.0,0.702063,-0.000763,-0.007273,0.712078,0.0,0.0,0.0,0.0,0.0,-0.726181,-0.004695,0.001249,-0.000295,-0.591289,-1.910596,-1.0,0.0
1.81999,0.020004,-1.885778,-0.760041,-1.024498,-0.206331,0.467326,0.009576,-0.05392,-0.024112,-9.759332,-0.00313,0.000944,0.000342,-0.001906,0.000279,-0.00028,0.0,0.0,0.0,0.702067,-0.000783,-0.007285,0.712073,0.0,0.0,0.0,0.0,0.0,-0.726232,-0.004058,-0.001344,-0.000284,-0.581729,-1.913529,-1.0,0.0
1.839981,0.019991,-1.890557,-0.748934,-1.024555,-0.202943,0.468272,0.010678,-0.051786,-0.024511,-9.756704,-0.001735,0.000484,0.000619,-0.00187,0.00059,0.000281,0.0,0.0,0.0,0.702078,-0.000808,-0.007297,0.712062,0.0,0.0,0.0,0.0,0.0,-0.726322,-0.004747,0.000871,-0.000341,-0.572154,-1.916413,-1.0,0.0
1.859975,0.019994,-1.893689,-0.741514,-1.024531,-0.200643,0.46882,0.0114,-0.052315,-0.025293,-9.750257,-0.002561,-0.000452,-0.000269,-0.002569,-0.00133,0.000165,0.0,0.0,0.0,0.702088,-0.000821,-0.007308,0.712052,0.0,0.0,0.0,0.0,0.0,-0.726393,-0.00389,-0.001713,-0.000313,-0.562565,-1.91925,-1.0,0.0
1.879979,0.020004,-1.898313,-0.73036,-1.024439,-0.197266,0.469796,0.012402,-0.056125,-0.017496,-9.763876,-0.001696,-0.001259,-0.000839,-0.00145,-0.001397,-0.000788,0.0,0.0,0.0,0.702103,-0.000827,-0.007341,0.712037,0.0,0.0,0.0,0.0,0.0,-0.726507,-0.004289,0.000909,-0.000355,-0.552962,-1.922039,-1.0,0.0
1.899988,0.020009,-1.901312,-0.722934,-1.024334,-0.195011,0.47045,0.013,-0.047291,-0.023287,-9.752726,-0.001596,5.4e-05,0.000608,-0.001995,0.000377,0.000597,0.0,0.0,0.0,0.702111,-0.000838,-0.007352,0.71203,0.0,0.0,0.0,0.0,0.0,-0.726584,-0.003762,-0.001646,-0.00035,-0.543344,-1.92478,-1.0,0.0
1.919986,0.019998,-1.904283,-0.715495,-1.024233,-0.192737,0.471109,0.0137,-0.056775,-0.020557,-9.755711,-0.001576,0.000188,-0.000725,-0.00168,-0.000684,-0.000722,0.0,0.0,0.0,0.702121,-0.000848,-0.007358,0.712019,0.0,0.0,0.0,0.0,0.0,-0.726669,-0.003074,-0.004211,-0.00033,-0.533714,-1.927472,-1.0,0.0
1.93998,0.019994,-1.90862,-0.704325,-1.024019,-0.189305,0.472058,0.014699,-0.052095,-0.024405,-9.759338,-0.001262,-0.002305,0.000437,-0.000355,-0.001833,0.00059,0.0,0.0,0.0,0.702133,-0.000853,-0.007377,0.712007,0.0,0.0,0.0,0.0,0.0,-0.726806,-0.00348,-0.001741,-0.000379,-0.52407,-1.930117,-1.0,0.0
1.959971,0.019991,-1.912845,-0.693125,-1.023756,-0.185741,0.473087,0.015567,-0.045855,-0.02523,-9.76158,-0.001608,-0.002277,0.000181,-0.001656,-0.002039,0.000243,0.0,0.0,0.0,0.702146,-0.000842,-0.0074,0.711994,0.0,0.0,0.0,0.0,0.0,-0.726943,-0.003718,0.000979,-0.000428,-0.514413,-1.932713,-1.0,0.0
1.979976,0.020005,-1.915608,-0.68564,-1.023555,-0.183418,0.473697,0.01612,-0.051172,-0.017239,-9.765796,0.000306,-0.002018,0.0005,0.000512,-0.001515,0.000342,0.0,0.0,0.0,0.70215,-0.000835,-0.007413,0.71199,0.0,0.0,0.0,0.0,0.0,-0.727037,-0.003116,-0.0014,-0.000419,-0.504743,-1.935261,-1.0,0.0
1.999981,0.020005,-1.919626,-0.674395,-1.023204,-0.179997,0.474707,0.016905,-0.059844,-0.012933,-9.775496,-0.001469,-0.000206,-0.000718,-0.001438,-4e-05,-0.000674,0.0,0.0,0.0,0.702163,-0.000833,-0.007429,0.711977,0.0,0.0,0.0,0.0,0.0,-0.727184,-0.003387,0.00121,-0.000469,-0.49506,-1.93776,-1.0,0.0
2.019981,0.02,-1.922256,-0.66688,-1.02295,-0.177609,0.475268,0.017416,-0.053689,-0.023501,-9.766649,-0.000676,-0.001056,-0.000223,0.000144,-0.000558,-0.000437,0.0,0.0,0.0,0.702172,-0.000835,-0.007444,0.711968,0.0,0.0,0.0,0.0,0.0,-0.727285,-0.002511,-0.001247,-0.000453,-0.485365,-1.940211,-1.0,0.0
2.039978,0.019997,-1.926119,-0.655585,-1.022524,-0.174013,0.476233,0.018229,-0.055581,-0.024175,-9.775465,4.1e-05,-0.000489,0.000296,-5.3e-05,-0.000641,0.000444,0.0,0.0,0.0,0.702186,-0.000832,-0.007448,0.711954,0.0,0.0,0.0,0.0,0.0,-0.72745,-0.002702,0.001287,-0.000507,-0.475658,-1.942614,-1.0,0.0
2.059971,0.019993,-1.928619,-0.648027,-1.022222,-0.17154,0.476914,0.018619,-0.057854,-0.025356,-9.781619,0.000111,-0.000929,0.000334,0.001267,-0.000377,3.7e-05,0.0,0.0,0.0,0.702189,-0.000826,-0.007453,0.711951,0.0,0.0,0.0,0.0,0.0,-0.727549,-0.001758,-0.001048,-0.000491,-0.465939,-1.944968,-1.0,0.0
2.079986,0.020015,-1.932322,-0.636665,-1.021758,-0.167895,0.477906,0.019121,-0.062668,-0.022256,-9.783828,1.7e-05,-0.002822,0.000518,0.0003,-0.002879,0.000294,0.0,0.0,0.0,0.702194,-0.000813,-0.007468,0.711946,0.0,0.0,0.0,0.0,0.0,-0.727694,-0.001956,0.001737,-0.00056,-0.456209,-1.947273,-1.0,0.0
2.099984,0.019998,-1.934748,-0.629085,-1.021448,-0.165526,0.478588,0.019406,-0.061397,-0.023449,-9.78026,0.00092,-0.001131,0.000255,0.001465,-0.00087,-0.000967,0.0,0.0,0.0,0.702204,-0.0008,-0.007473,0.711936,0.0,0.0,0.0,0.0,0.0,-0.727789,-0.001268,-0.000544,-0.000542,-0.446467,-1.94953,-1.0,0.0
2.119976,0.019992,-1.938331,-0.6177,-1.020978,-0.161945,0.479599,0.019745,-0.057837,-0.021504,-9.780342,-0.000261,0.001539,-0.001255,-0.000467,0.001767,-0.001621,0.0,0.0,0.0,0.702224,-0.000804,-0.007466,0.711917,0.0,0.0,0.0,0.0,0.0,-0.727921,-0.001396,0.00196,-0.000594,-0.436713,-1.951738,-1.0,0.0
2.139975,0.019999,-1.940679,-0.610108,-1.020664,-0.159518,0.480272,0.019947,-0.05078,-0.025149,-9.78566,0.000207,0.000213,0.000741,0.001026,-0.000768,-0.001364,0.0,0.0,0.0,0.70223,-0.000805,-0.00746,0.711911,0.0,0.0,0.0,0.0,0.0,-0.728007,-0.000673,-0.000514,-0.00058,-0.426949,-1.953897,-1.0,0.0
2.159974,0.019999,-1.944134,-0.598718,-1.020137,-0.155934,0.481305,0.020319,-0.061601,-0.017895,-9.785647,0.002168,0.001321,-0.000786,0.002557,0.001533,-0.000752,0.0,0.0,0.0,0.702243,-0.000791,-0.007444,0.711898,0.0,0.0,0.0,0.0,0.0,-0.728154,-0.000988,0.002082,-0.000632,-0.417174,-1.956007,-1.0,0.0
2.179978,0.020004,-1.946399,-0.591114,-1.019785,-0.153621,0.48189,0.020547,-0.05819,-0.020683,-9.787539,0.001863,0.000857,0.000324,0.002222,0.001146,-0.00076,0.0,0.0,0.0,0.702251,-0.000789,-0.007427,0.71189,0.0,0.0,0.0,0.0,0.0,-0.728249,-0.000474,-0.000534,-0.000611,-0.407389,-1.958069,-1.0,0.0
2.199994,0.020016,-1.948601,-0.583518,-1.019432,-0.151256,0.482533,0.020719,-0.058624,-0.019737,-9.799934,0.001897,0.000616,-0.000512,0.002699,0.000299,-0.001245,0.0,0.0,0.0,0.702261,-0.000784,-0.007413,0.71188,0.0,0.0,0.0,0.0,0.0,-0.72834,8.7e-05,-0.003076,-0.000593,-0.397594,-1.960081,-1.0,0.0
2.219992,0.019998,-1.951842,-0.572091,-1.018911,-0.147654,0.483414,0.020788,-0.064051,-0.017753,-9.799932,0.001388,-0.002178,-0.001587,0.001993,-0.000691,-0.001576,0.0,0.0,0.0,0.70228,-0.000758,-0.007406,0.711862,0.0,0.0,0.0,0.0,0.0,-0.728462,-0.000143,-0.00038,-0.000641,-0.387789,-1.962045,-1.0,0.0
2.239966,0.019974,-1.954998,-0.560621,-1.018376,-0.144165,0.484341,0.020815,-0.05987,-0.021415,-9.800373,0.002936,-0.000417,-0.000187,0.002785,0.000117,-0.00043,0.0,0.0,0.0,0.702297,-0.000732,-0.007395,0.711846,0.0,0.0,0.0,0.0,0.0,-0.728582,-0.000434,0.002356,-0.000685,-0.377974,-1.963959,-1.0,0.0
2.259966,0.02,-1.957046,-0.552951,-1.018029,-0.141905,0.485066,0.020747,-0.053736,-0.015775,-9.809439,0.002107,-0.003098,0.00113,0.002497,-0.003896,-6.9e-05,0.0,0.0,0.0,0.7023,-0.000707,-0.007396,0.711842,0.0,0.0,0.0,0.0,0.0,-0.728653,3.1e-05,0.000226,-0.000666,-0.368149,-1.965825,-1.0,0.0
2.279964,0.019998,-1.960064,-0.541428,-1.0175,-0.138555,0.486158,0.020592,-0.061506,-0.013337,-9.803803,0.003372,-0.002305,0.000464,0.003621,-0.001396,0.000391,0.0,0.0,0.0,0.702306,-0.000656,-0.007398,0.711837,0.0,0.0,0.0,0.0,0.0,-0.728757,-0.000417,0.003429,-0.000709,-0.358315,-1.967641,-1.0,0.0
2.29998,0.020016,-1.962041,-0.533741,-1.017149,-0.136331,0.486891,0.020472,-0.057486,-0.014448,-9.813228,0.003017,-0.001125,-0.001289,0.003098,-0.001289,-0.001587,0.0,0.0,0.0,0.702316,-0.000634,-0.007389,0.711827,0.0,0.0,0.0,0.0,0.0,-0.728825,-7.4e-05,0.001218,-0.000684,-0.348473,-1.969408,-1.0,0.0
2.319976,0.019996,-1.964953,-0.522195,-1.01667,-0.133058,0.488036,0.020193,-0.052068,-0.020775,-9.815205,0.003733,-0.002329,0.000352,0.003708,-0.002539,6.5e-05,0.0,0.0,0.0,0.702326,-0.000585,-0.007375,0.711817,0.0,0.0,0.0,0.0,0.0,-0.728908,-0.000665,0.004344,-0.000721,-0.338621,-1.971125,-1.0,0.0
2.339965,0.019989,-1.966859,-0.514481,-1.01636,-0.130835,0.488807,0.020104,-0.049115,-0.015078,-9.800615,0.005311,-0.003717,-0.000105,0.004748,-0.00308,-0.000487,0.0,0.0,0.0,0.702332,-0.000537,-0.007368,0.711811,0.0,0.0,0.0,0.0,0.0,-0.728942,0.000162,-0.002923,-0.000638,-0.328762,-1.972794,-1.0,0.0
2.359967,0.020002,-1.969668,-0.502915,-1.015926,-0.127617,0.489896,0.019905,-0.058887,-0.017101,-9.820553,0.004594,-0.003761,-0.000398,0.004433,-0.003867,-0.000321,0.0,0.0,0.0,0.702346,-0.00047,-0.007364,0.711798,0.0,0.0,0.0,0.0,0.0,-0.729007,0.000123,-0.004902,-0.000619,-0.318893,-1.974413,-1.0,0.0
2.379972,0.020005,-1.971512,-0.495194,-1.01565,-0.125546,0.490616,0.019607,-0.0505,-0.016449,-9.816333,0.002975,-0.002325,-0.000292,0.002323,-0.001429,-0.000609,0.0,0.0,0.0,0.702356,-0.000436,-0.007359,0.711788,0.0,0.0,0.0,0.0,0.0,-0.729074,-0.000483,-0.00165,-0.000641,-0.309017,-1.975983,-1.0,0.0
2.399962,0.01999,-1.974218,-0.483628,-1.01525,-0.122403,0.491684,0.019252,-0.054266,-0.014596,-9.825354,0.002746,-0.001445,0.001143,0.002835,-0.001404,0.000874,0.0,0.0,0.0,0.702363,-0.000402,-0.007351,0.711781,0.0,0.0,0.0,0.0,0.0,-0.729115,-0.000449,-0.003745,-0.000617,-0.299134,-1.977503,-1.0,0.0
2.419983,0.020021,-1.975995,-0.475904,-1.014992,-0.120261,0.492457,0.018901,-0.058533,-0.013397,-9.818956,0.002911,-0.000652,-0.000297,0.002501,-0.000866,2.3e-05,0.0,0.0,0.0,0.702371,-0.000382,-0.007337,0.711773,0.0,0.0,0.0,0.0,0.0,-0.729166,-0.000945,-0.000792,-0.000642,-0.289243,-1.978974,-1.0,0.0
2.439976,0.019993,-1.978626,-0.464299,-1.014617,-0.117226,0.493515,0.018424,-0.046526,-0.016386,-9.824829,0.003054,-0.001074,2.3e-05,0.003233,-0.000719,0.000181,0.0,0.0,0.0,0.702384,-0.000352,-0.007321,0.71176,0.0,0.0,0.0,0.0,0.0,-0.729224,-0.002135,0.00735,-0.000723,-0.279344,-1.980396,-1.0,0.0
2.45997,0.019994,-1.980362,-0.45656,-1.014385,-0.115184,0.494243,0.018033,-0.059024,-0.020739,-9.828381,0.003439,-0.000158,-0.000826,0.003583,-0.000224,-0.001198,0.0,0.0,0.0,0.702395,-0.000331,-0.007302,0.71175,0.0,0.0,0.0,0.0,0.0,-0.729238,-0.001579,-0.000108,-0.000635,-0.269439,-1.981768,-1.0,0.0
2.479968,0.019998,-1.982902,-0.444937,-1.014047,-0.11216,0.495273,0.017431,-0.053108,-0.007333,-9.816693,0.003638,0.000131,0.000651,0.003366,6.9e-05,5.4e-05,0.0,0.0,0.0,0.702406,-0.000303,-0.007274,0.711739,0.0,0.0,0.0,0.0,0.0,-0.729255,-0.001744,-0.002396,-0.000607,-0.259526,-1.98309,-1.0,0.0
2.499985,0.020017,-1.984549,-0.437192,-1.013827,-0.110136,0.495896,0.017154,-0.056654,-0.014314,-9.824936,0.002904,0.000566,-0.001244,0.003334,-0.000535,0.000167,0.0,0.0,0.0,0.70242,-0.000291,-0.007257,0.711725,0.0,0.0,0.0,0.0,0.0,-0.729283,-0.002386,0.000421,-0.000619,-0.249608,-1.984363,-1.0,0.0
2.519976,0.019991,-1.986982,-0.425563,-1.013506,-0.107115,0.496887,0.016682,-0.060471,-0.019351,-9.821861,0.003683,0.002055,-0.000662,0.004272,0.0023,-0.000681,0.0,0.0,0.0,0.702432,-0.00027,-0.007225,0.711714,0.0,0.0,0.0,0.0,0.0,-0.729309,-0.002558,-0.001932,-0.000591,-0.239683,-1.985586,-1.0,0.0
2.539972,0.019996,-1.988575,-0.417794,-1.013296,-0.105143,0.497507,0.016319,-0.066439,-0.012363,-9.81705,0.002351,0.001961,-0.000437,0.001993,0.002654,-0.001397,0.0,0.0,0.0,0.702442,-0.000265,-0.007194,0.711705,0.0,0.0,0.0,0.0,0.0,-0.729338,-0.003251,0.000613,-0.000603,-0.229752,-1.98676,-1.0,0.0
2.559972,0.02,-1.990947,-0.406141,-1.012991,-0.102219,0.49841,0.015767,-0.060338,-0.014783,-9.821589,0.001542,0.001628,-0.000648,0.001874,0.001995,-0.000222,0.0,0.0,0.0,0.702463,-0.000265,-0.007164,0.711684,0.0,0.0,0.0,0.0,0.0,-0.729355,-0.003454,-0.001978,-0.000568,-0.219815,-1.987884,-1.0,0.0
2.579978,0.020006,-1.992495,-0.398367,-1.012799,-0.100232,0.499101,0.015441,-0.061225,-0.007493,-9.825266,0.002339,0.000349,-0.000721,0.002898,0.001236,0.000142,0.0,0.0,0.0,0.702473,-0.000261,-0.007144,0.711675,0.0,0.0,0.0,0.0,0.0,-0.729376,-0.004016,0.000643,-0.000578,-0.209873,-1.988958,-1.0,0.0
2.599976,0.019998,-1.994756,-0.386701,-1.012518,-0.097317,0.499941,0.014856,-0.058045,-0.015921,-9.831217,-0.000483,0.00273,0.000562,-0.000309,0.003081,0.000365,0.0,0.0,0.0,0.702486,-0.000268,-0.007118,0.711662,0.0,0.0,0.0,0.0,0.0,-0.72939,-0.004333,-0.001798,-0.000543,-0.199926,-1.989982,-1.0,0.0
2.619984,0.020008,-1.996224,-0.37893,-1.012334,-0.095366,0.500456,0.014541,-0.062412,-0.015219,-9.815775,-0.001315,0.000835,-0.000498,-0.00158,0.001775,-0.000452,0.0,0.0,0.0,0.702498,-0.000283,-0.007117,0.711651,0.0,0.0,0.0,0.0,0.0,-0.729402,-0.004621,0.000667,-0.000555,-0.189974,-1.990957,-1.0,0.0
2.63997,0.019986,-1.997659,-0.371171,-1.012177,-0.093414,0.500998,0.014256,-0.059116,-0.016673,-9.817917,-0.00249,-3.7e-05,-0.000527,-0.001886,0.000903,-0.000188,0.0,0.0,0.0,0.702508,-0.0003,-0.007124,0.71164,0.0,0.0,0.0,0.0,0.0,-0.729417,-0.004557,-0.001936,-0.000525,-0.180016,-1.991882,-1.0,0.0
2.659975,0.020005,-1.999721,-0.359552,-1.011947,-0.090428,0.50177,0.013754,-0.057836,-0.006873,-9.817936,-0.001998,0.00191,-0.000423,-0.001656,0.001066,-0.000979,0.0,0.0,0.0,0.702523,-0.000326,-0.007126,0.711626,0.0,0.0,0.0,0.0,0.0,-0.729433,-0.004533,0.000619,-0.000542,-0.170055,-1.992757,-1.0,0.0
2.67996,0.019985,-2.001673,-0.347942,-1.011726,-0.087452,0.502597,0.013312,-0.05094,-0.014939,-9.819681,-0.002422,0.000783,-0.000745,-0.002671,0.000536,-0.001065,0.0,0.0,0.0,0.702544,-0.000356,-0.007129,0.711605,0.0,0.0,0.0,0.0,0.0,-0.729441,-0.004494,0.002976,-0.000551,-0.160089,-1.993583,-1.0,0.0
2.699979,0.020019,-2.002908,-0.340209,-1.011586,-0.085351,0.503121,0.01295,-0.060015,-0.014547,-9.826879,-0.003715,0.000682,-0.001607,-0.003231,0.00032,-0.00063,0.0,0.0,0.0,0.702559,-0.000377,-0.007146,0.71159,0.0,0.0,0.0,0.0,0.0,-0.72945,-0.004184,0.000455,-0.000525,-0.150119,-1.994358,-1.0,0.0
2.719987,0.020008,-2.004663,-0.328616,-1.011385,-0.08221,0.503765,0.012438,-0.063445,-0.013302,-9.819918,-0.002793,0.001674,-0.000898,-0.002941,0.001775,-0.000848,0.0,0.0,0.0,0.702575,-0.000412,-0.007166,0.711573,0.0,0.0,0.0,0.0,0.0,-0.729453,-0.003827,-0.002071,-0.000499,-0.140145,-1.995084,-1.0,0.0
2.739975,0.019988,-2.005785,-0.320877,-1.011254,-0.080125,0.50422,0.012115,-0.057217,-0.019035,-9.823047,-0.002382,0.002069,-0.001194,-0.002742,0.001231,-0.001252,0.0,0.0,0.0,0.70259,-0.000437,-0.007168,0.711559,0.0,0.0,0.0,0.0,0.0,-0.729453,-0.003308,0.000214,-0.000522,-0.130168,-1.99576,-1.0,0.0
2.759964,0.019989,-2.007396,-0.309237,-1.011081,-0.076879,0.504927,0.011588,-0.060624,-0.018127,-9.816305,-0.002285,0.002043,-0.000647,-0.002234,0.001985,-0.000732,0.0,0.0,0.0,0.702606,-0.000477,-0.007174,0.711543,0.0,0.0,0.0,0.0,0.0,-0.729456,-0.002956,-0.002472,-0.000497,-0.120188,-1.996385,-1.0,0.0
2.779957,0.019993,-2.008422,-0.301456,-1.010967,-0.074671,0.505414,0.01127,-0.059829,-0.01224,-9.816787,-0.001934,0.001253,-0.001053,-0.002052,0.000822,-0.00147,0.0,0.0,0.0,0.702615,-0.000504,-0.007176,0.711533,0.0,0.0,0.0,0.0,0.0,-0.729453,-0.002355,-0.000189,-0.000527,-0.110205,-1.996961,-1.0,0.0
2.799971,0.020014,-2.009896,-0.289752,-1.010799,-0.071658,0.506136,0.010794,-0.059452,-0.003445,-9.821393,-0.001742,-0.000304,-0.000859,-0.001716,3.3e-05,-0.000905,0.0,0.0,0.0,0.702634,-0.000525,-0.007195,0.711515,0.0,0.0,0.0,0.0,0.0,-0.729456,-0.002065,-0.002724,-0.0005,-0.100218,-1.997488,-1.0,0.0
2.819975,0.020004,-2.010839,-0.281925,-1.010754,-0.069567,0.506676,0.010412,-0.063807,-0.014687,-9.833256,-0.001297,0.000612,-0.000485,-0.000682,0.001432,-0.00014,0.0,0.0,0.0,0.702642,-0.000538,-0.007203,0.711507,0.0,0.0,0.0,0.0,0.0,-0.729449,-0.00166,-8e-06,-0.000515,-0.09023,-1.997964,-1.0,0.0
2.839976,0.020001,-2.011757,-0.274079,-1.010708,-0.06756,0.507156,0.009994,-0.057529,-0.007517,-9.820488,-0.00113,0.001235,-0.001017,-0.001089,0.000216,-0.001708,0.0,0.0,0.0,0.702653,-0.000555,-0.0072,0.711496,0.0,0.0,0.0,0.0,0.0,-0.729423,-0.001523,-0.002489,-0.000489,-0.080239,-1.99839,-1.0,0.0
2.85997,0.019994,-2.0131,-0.262273,-1.010695,-0.064518,0.507961,0.009445,-0.051723,-0.010146,-9.826405,-0.00164,0.000834,-0.000761,-0.001322,0.001408,-7.1e-05,0.0,0.0,0.0,0.702673,-0.000572,-0.007206,0.711476,0.0,0.0,0.0,0.0,0.0,-0.729389,-0.001219,0.000267,-0.000502,-0.070246,-1.998766,-1.0,0.0
2.879971,0.020001,-2.014393,-0.250426,-1.010678,-0.061482,0.508854,0.008908,-0.056417,-0.019622,-9.820984,-0.001484,0.000693,-0.000507,-0.001157,0.000917,-0.00058,0.0,0.0,0.0,0.70269,-0.000597,-0.00721,0.71146,0.0,0.0,0.0,0.0,0.0,-0.729353,-0.000922,0.003042,-0.000512,-0.060251,-1.999092,-1.0,0.0
2.899976,0.020005,-2.015227,-0.242507,-1.010698,-0.059473,0.509404,0.008533,-0.061397,-0.009954,-9.822811,0.000208,0.001097,-0.001223,0.001036,0.000885,-0.00091,0.0,0.0,0.0,0.702704,-0.000604,-0.007205,0.711446,0.0,0.0,0.0,0.0,0.0,-0.729327,-0.000879,0.000737,-0.000483,-0.050255,-1.999369,-1.0,0.0
2.919974,0.019998,-2.016455,-0.230589,-1.01077,-0.056467,0.510282,0.007983,-0.055863,-0.010029,-9.819147,0.001895,0.001305,-0.001281,0.00124,0.000891,-0.001555,0.0,0.0,0.0,0.702721,-0.000601,-0.007182,0.711429,0.0,0.0,0.0,0.0,0.0,-0.729295,-0.00103,-0.001598,-0.000451,-0.040258,-1.999595,-1.0,0.0
2.939974,0.02,-2.017253,-0.222619,-1.010818,-0.05449,0.51073,0.007567,-0.059282,-0.005543,-9.823692,0.001578,0.001859,-0.000371,0.000986,0.001502,-0.001121,0.0,0.0,0.0,0.70273,-0.000601,-0.007165,0.71142,0.0,0.0,0.0,0.0,0.0,-0.729237,-0.001271,0.001308,-0.000458,-0.030259,-1.999771,-1.0,0.0
2.959964,0.01999,-2.018427,-0.210622,-1.010963,-0.051715,0.511548,0.007059,-0.053952,-0.008772,-9.825407,0.001363,-0.00016,-0.001882,0.001017,-0.000698,-0.001981,0.0,0.0,0.0,0.70275,-0.000596,-0.007144,0.711401,0.0,0.0,0.0,0.0,0.0,-0.729189,-0.001694,-0.001026,-0.000419,-0.02026,-1.999897,-1.0,0.0
2.979959,0.019995,-2.019178,-0.202602,-1.011072,-0.049913,0.512146,0.006711,-0.061559,-0.004577,-9.809076,0.000504,0.000859,-0.0005,0.000345,0.000602,-0.000199,0.0,0.0,0.0,0.70276,-0.000593,-0.007136,0.711391,0.0,0.0,0.0,0.0,0.0,-0.729126,-0.002095,0.002081,-0.000415,-0.01026,-1.999974,-1.0,0.0
2.999989,0.02003,-2.02026,-0.190541,-1.011253,-0.047007,0.512852,0.00624,-0.058542,-0.011558,-9.818821,0.00072,0.00112,-0.00066,0.000866,0.001313,-0.000227,0.0,0.0,0.0,0.702772,-0.000595,-0.007123,0.711379,0.0,0.0,0.0,0.0,0.0,-0.72908,-0.002542,-7.2e-05,-0.000375,-0.00026,-2.0,-1.0,0.0
3.019971,0.019982,-2.020921,-0.182497,-1.011369,-0.045117,0.513444,0.005992,-0.054772,-0.009222,-9.815631,0.001679,0.001566,0.000197,0.001785,0.00176,0.00045,0.0,0.0,0.0,0.702778,-0.000596,-0.007105,0.711374,0.0,0.0,0.0,0.0,0.0,-0.729006,-0.002754,0.00292,-0.000381,0.00974,-1.999976,-1.0,0.0
3.039971,0.02,-2.021869,-0.170408,-1.011529,-0.042339,0.514231,0.005585,-0.066875,-0.010269,-9.810667,0.001159,0.002168,-0.001078,0.001536,0.002031,-0.001252,0.0,0.0,0.0,0.70279,-0.000606,-0.007073,0.711362,0.0,0.0,0.0,0.0,0.0,-0.728968,-0.003292,0.000757,-0.000342,0.019739,-1.999903,-1.0,0.0
3.059961,0.01999,-2.022477,-0.162341,-1.011627,-0.040378,0.514734,0.005358,-0.056306,-0.008576,-9.815395,0.001858,0.003321,-0.000167,0.00229,0.002932,-0.002006,0.0,0.0,0.0,0.7028,-0.000616,-0.007044,0.711353,0.0,0.0,0.0,0.0,0.0,-0.728906,-0.003566,0.003559,-0.000343,0.029738,-1.999779,-1.0,0.0
3.079964,0.020003,-2.023352,-0.150241,-1.011767,-0.037605,0.515462,0.004932,-0.062605,-0.002983,-9.818531,9.2e-05,0.002829,-0.000257,9.3e-05,0.003194,-0.000629,0.0,0.0,0.0,0.702816,-0.000638,-0.007009,0.711337,0.0,0.0,0.0,0.0,0.0,-0.728869,-0.004172,0.001241,-0.000302,0.039737,-1.999605,-1.0,0.0
3.099971,0.020007,-2.023904,-0.142166,-1.011854,-0.035705,0.515941,0.004736,-0.062099,-0.001073,-9.809559,-0.000732,0.004235,-0.000477,-0.000677,0.004692,-0.000146,0.0,0.0,0.0,0.702827,-0.000665,-0.006992,0.711327,0.0,0.0,0.0,0.0,0.0,-0.728807,-0.004268,0.003976,-0.000305,0.049734,-1.999382,-1.0,0.0
3.120137,0.020166,-2.024722,-0.13002,-1.011983,-0.03296,0.516696,0.004435,-0.062545,-0.008914,-9.804577,-0.001095,0.003963,0.000341,-0.001487,0.00429,-4.8e-05,0.0,0.0,0.0,0.702833,-0.0007,-0.006955,0.711321,0.0,0.0,0.0,0.0,0.0,-0.728776,-0.004833,0.001583,-0.000263,0.059731,-1.999108,-1.0,0.0
3.139969,0.019832,-2.025239,-0.121904,-1.012061,-0.031218,0.517031,0.004293,-0.063075,-0.011918,-9.813089,-0.001419,0.00589,-0.000384,-0.000697,0.006717,-0.000699,0.0,0.0,0.0,0.702842,-0.000739,-0.006929,0.711312,0.0,0.0,0.0,0.0,0.0,-0.728729,-0.005057,0.004174,-0.000264,0.069725,-1.998784,-1.0,0.0
3.159965,0.019996,-2.025993,-0.109714,-1.012177,-0.028609,0.517725,0.004117,-0.053104,-0.001769,-9.801292,-0.001478,0.00387,0.000173,-0.001321,0.003804,0.000388,0.0,0.0,0.0,0.702856,-0.000791,-0.006894,0.711298,0.0,0.0,0.0,0.0,0.0,-0.7287,-0.005636,0.001559,-0.000219,0.079718,-1.998411,-1.0,0.0
3.179955,0.01999,-2.026469,-0.101578,-1.012247,-0.026881,0.518234,0.004023,-0.062799,-0.006935,-9.79954,-0.000928,0.004889,-8.8e-05,-0.00071,0.005804,3.5e-05,0.0,0.0,0.0,0.702863,-0.00082,-0.006872,0.711291,0.0,0.0,0.0,0.0,0.0,-0.728672,-0.005958,0.004342,-0.000209,0.089709,-1.997987,-1.0,0.0
3.199958,0.020003,-2.026924,-0.093438,-1.012311,-0.025118,0.518674,0.003919,-0.065632,7e-06,-9.806668,-0.002786,0.005558,-0.000654,-0.002216,0.006118,0.000625,0.0,0.0,0.0,0.702872,-0.000862,-0.00685,0.711283,0.0,0.0,0.0,0.0,0.0,-0.728649,-0.006625,0.001896,-0.000165,0.099698,-1.997514,-1.0,0.0
3.219968,0.02001,-2.027584,-0.081233,-1.0124,-0.022571,0.519225,0.003752,-0.059299,-0.003637,-9.812369,-0.001493,0.006215,0.000265,-0.001335,0.005394,-0.000468,0.0,0.0,0.0,0.702883,-0.00093,-0.006813,0.711272,0.0,0.0,0.0,0.0,0.0,-0.728615,-0.006765,0.004393,-0.000159,0.109685,-1.99699,-1.0,0.0
3.239958,0.01999,-2.028198,-0.069045,-1.0125,-0.019971,0.51972,0.003482,-0.066965,-0.004165,-9.811509,-0.003068,0.004021,-0.001401,-0.003201,0.004068,-0.002125,0.0,0.0,0.0,0.702895,-0.000988,-0.006797,0.71126,0.0,0.0,0.0,0.0,0.0,-0.728589,-0.007572,0.001877,-0.000122,0.119668,-1.996417,-1.0,0.0
3.259961,0.020003,-2.028579,-0.060945,-1.012568,-0.018217,0.520027,0.003336,-0.054289,0.001561,-9.802658,-0.004148,0.002466,-0.000829,-0.00344,0.003147,-0.000891,0.0,0.0,0.0,0.70291,-0.001023,-0.006801,0.711245,0.0,0.0,0.0,0.0,0.0,-0.728547,-0.007582,0.004562,-0.000105,0.129649,-1.995793,-1.0,0.0
3.27996,0.019999,-2.02912,-0.048807,-1.012686,-0.015641,0.520425,0.003162,-0.063882,-0.005437,-9.80515,-0.003823,0.005065,0.001272,-0.003786,0.005331,0.001231,0.0,0.0,0.0,0.702922,-0.001096,-0.006798,0.711234,0.0,0.0,0.0,0.0,0.0,-0.728531,-0.008113,0.002193,-6.1e-05,0.139626,-1.99512,-1.0,0.0
3.299974,0.020014,-2.02945,-0.04071,-1.012751,-0.013813,0.52067,0.003055,-0.067912,0.002092,-9.806175,-0.004725,0.005582,-9.3e-05,-0.005363,0.005626,-0.000131,0.0,0.0,0.0,0.70293,-0.001148,-0.006791,0.711225,0.0,0.0,0.0,0.0,0.0,-0.728494,-0.008127,0.004614,-7.1e-05,0.1496,-1.994397,-1.0,0.0
3.319971,0.019997,-2.029912,-0.028599,-1.012875,-0.011238,0.52089,0.002895,-0.065873,-0.004744,-9.804873,-0.005672,0.004405,-0.000879,-0.005839,0.004906,-0.001331,0.0,0.0,0.0,0.702948,-0.001227,-0.006794,0.711208,0.0,0.0,0.0,0.0,0.0,-0.728475,-0.00869,0.001979,-2.6e-05,0.15957,-1.993624,-1.0,0.0
3.339954,0.019983,-2.030187,-0.020531,-1.012952,-0.009404,0.521114,0.002803,-0.06483,0.000627,-9.808588,-0.003882,0.004407,-0.000324,-0.004254,0.004054,0.000249,0.0,0.0,0.0,0.702961,-0.001278,-0.00679,0.711194,0.0,0.0,0.0,0.0,0.0,-0.728439,-0.008507,0.004351,-2.5e-05,0.169536,-1.992801,-1.0,0.0
3.359957,0.020003,-2.03055,-0.008434,-1.013011,-0.006745,0.521381,0.002524,-0.06774,-0.003486,-9.808128,-0.004672,0.005303,-0.00034,-0.004616,0.005687,-0.00057,0.0,0.0,0.0,0.702979,-0.001356,-0.006787,0.711177,0.0,0.0,0.0,0.0,0.0,-0.728419,-0.009124,0.001775,1.6e-05,0.179498,-1.991929,-1.0,0.0
3.379956,0.019999,-2.030755,-0.000408,-1.013065,-0.004983,0.521591,0.002476,-0.061211,-0.011865,-9.794397,-0.005925,0.004795,-0.000759,-0.00499,0.004264,0.000354,0.0,0.0,0.0,0.702995,-0.001417,-0.006789,0.711161,0.0,0.0,0.0,0.0,0.0,-0.728387,-0.008948,0.004054,2e-05,0.189455,-1.991006,-1.0,0.0
3.399969,0.020013,-2.030846,0.003611,-1.013091,-0.004035,0.521639,0.002485,-0.061931,-0.00711,-9.812159,-0.005057,0.003591,0.000284,-0.006321,0.00349,-0.001476,0.0,0.0,0.0,0.702999,-0.001441,-0.006791,0.711157,0.0,0.0,0.0,0.0,0.0,-0.728381,-0.009448,0.001424,5.8e-05,0.199408,-1.990034,-1.0,0.0
3.41998,0.020011,-2.031074,0.015665,-1.01318,-0.001351,0.521961,0.002231,-0.058405,0.001202,-9.808517,-0.006607,0.005101,-0.000944,-0.006919,0.005579,-0.000876,0.0,0.0,0.0,0.703022,-0.00153,-0.006802,0.711134,0.0,0.0,0.0,0.0,0.0,-0.728345,-0.009087,0.003791,6e-05,0.209355,-1.989012,-1.0,0.0
3.439963,0.019983,-2.031239,0.0277,-1.013294,0.001353,0.522189,0.002024,-0.054636,-0.003867,-9.805935,-0.007915,0.003105,-0.000455,-0.007949,0.003195,-0.000782,0.0,0.0,0.0,0.703042,-0.001622,-0.006826,0.711114,0.0,0.0,0.0,0.0,0.0,-0.728309,-0.008651,0.006177,4.8e-05,0.219298,-1.987941,-1.0,0.0
3.459957,0.019994,-2.031316,0.035686,-1.013392,0.003163,0.522303,0.00194,-0.062266,0.008132,-9.804341,-0.006505,0.004303,-0.001135,-0.006577,0.004413,-0.00132,0.0,0.0,0.0,0.703057,-0.001684,-0.006835,0.711098,0.0,0.0,0.0,0.0,0.0,-0.728286,-0.009029,0.003469,0.0001,0.229235,-1.986819,-1.0,0.0
3.479959,0.020002,-2.031362,0.043688,-1.013493,0.005034,0.522321,0.001949,-0.065846,0.000811,-9.801844,-0.007317,0.004431,-0.000207,-0.007288,0.004412,-0.001372,0.0,0.0,0.0,0.70307,-0.001749,-0.006845,0.711086,0.0,0.0,0.0,0.0,0.0,-0.728271,-0.009454,0.000713,0.000136,0.239166,-1.985648,-1.0,0.0
3.499969,0.02001,-2.03141,0.055643,-1.013688,0.007799,0.522279,0.00192,-0.059996,-0.001606,-9.797318,-0.006723,0.003967,-0.000142,-0.006806,0.00451,-0.000284,0.0,0.0,0.0,0.703093,-0.00184,-0.006866,0.711063,0.0,0.0,0.0,0.0,0.0,-0.728233,-0.008975,0.002808,0.000132,0.249091,-1.984428,-1.0,0.0
3.51999,0.020021,-2.031416,0.063604,-1.013822,0.009642,0.522182,0.001966,-0.050611,-0.000106,-9.792062,-0.007575,0.001834,-9.1e-05,-0.008466,0.001502,-0.001415,0.0,0.0,0.0,0.703108,-0.001894,-0.006892,0.711047,0.0,0.0,0.0,0.0,0.0,-0.728216,-0.009432,0.000156,0.00017,0.25901,-1.983158,-1.0,0.0
3.539961,0.019971,-2.03138,0.075535,-1.014033,0.012448,0.522075,0.001912,-0.06646,0.002763,-9.799358,-0.008019,0.001897,-0.001031,-0.008542,0.002412,-0.001276,0.0,0.0,0.0,0.703134,-0.001982,-0.006936,0.711021,0.0,0.0,0.0,0.0,0.0,-0.728176,-0.008781,0.002416,0.000164,0.268923,-1.981838,-1.0,0.0
3.559955,0.019994,-2.031346,0.083449,-1.014196,0.014296,0.521989,0.001924,-0.057061,-0.003734,-9.794257,-0.007954,0.001424,-0.001103,-0.007923,0.001066,-0.001516,0.0,0.0,0.0,0.703151,-0.002039,-0.006964,0.711004,0.0,0.0,0.0,0.0,0.0,-0.728151,-0.00927,-0.000281,0.000202,0.278828,-1.980468,-1.0,0.0
3.579959,0.020004,-2.031243,0.095326,-1.014437,0.017197,0.521908,0.00189,-0.0698,-0.000756,-9.794324,-0.006752,0.00309,-0.000383,-0.006403,0.003668,-0.000666,0.0,0.0,0.0,0.703176,-0.002125,-0.007003,0.710979,0.0,0.0,0.0,0.0,0.0,-0.728107,-0.008655,0.001921,0.000192,0.288727,-1.979049,-1.0,0.0
3.59995,0.019991,-2.031137,0.103228,-1.014603,0.019147,0.521719,0.002098,-0.067691,0.005083,-9.789595,-0.006771,0.001841,-0.001483,-0.007231,0.001777,-0.000437,0.0,0.0,0.0,0.703196,-0.002177,-0.007022,0.710959,0.0,0.0,0.0,0.0,0.0,-0.728098,-0.009224,-0.000867,0.000227,0.298619,-1.977581,-1.0,0.0
3.619982,0.020032,-2.030932,0.115085,-1.014869,0.021948,0.521538,0.00211,-0.062191,-8.9e-05,-9.794941,-0.008263,0.002471,-0.001192,-0.008092,0.002551,-0.001366,0.0,0.0,0.0,0.703218,-0.002264,-0.007062,0.710935,0.0,0.0,0.0,0.0,0.0,-0.728052,-0.008652,0.001261,0.000219,0.308503,-1.976063,-1.0,0.0
3.639968,0.019986,-2.030659,0.126954,-1.015158,0.024906,0.52132,0.002232,-0.064502,-0.004838,-9.791716,-0.006944,0.00189,-0.000404,-0.007075,0.002018,-0.000751,0.0,0.0,0.0,0.70324,-0.002339,-0.007099,0.710913,0.0,0.0,0.0,0.0,0.0,-0.728012,-0.008168,0.003482,0.000195,0.318379,-1.974496,-1.0,0.0
3.659954,0.019986,-2.030425,0.134864,-1.015384,0.026867,0.521216,0.002285,-0.060441,0.006416,-9.792036,-0.006525,0.000613,2.5e-05,-0.006034,0.000599,-0.000573,0.0,0.0,0.0,0.703254,-0.002384,-0.007127,0.710899,0.0,0.0,0.0,0.0,0.0,-0.727978,-0.008654,0.000912,0.000238,0.328248,-1.972879,-1.0,0.0
3.679957,0.020003,-2.030155,0.142791,-1.015607,0.028829,0.520997,0.002429,-0.066603,-0.001099,-9.78825,-0.007278,0.000915,-0.000132,-0.007287,0.000402,-0.000244,0.0,0.0,0.0,0.703267,-0.002429,-0.007158,0.710885,0.0,0.0,0.0,0.0,0.0,-0.727953,-0.009224,-0.001662,0.000269,0.338108,-1.971214,-1.0,0.0
3.699953,0.019996,-2.029717,0.15466,-1.015973,0.031903,0.520844,0.002628,-0.061949,-0.004792,-9.791111,-0.00625,0.002805,0.000486,-0.006645,0.002851,0.000567,0.0,0.0,0.0,0.703285,-0.002503,-0.007193,0.710868,0.0,0.0,0.0,0.0,0.0,-0.727903,-0.008586,0.000594,0.000248,0.34796,-1.969498,-1.0,0.0
3.719966,0.020013,-2.02939,0.16257,-1.016222,0.033916,0.520679,0.00272,-0.054027,0.007874,-9.792265,-0.007508,0.000221,0.001063,-0.006793,0.000981,-0.000207,0.0,0.0,0.0,0.703295,-0.002547,-0.007224,0.710857,0.0,0.0,0.0,0.0,0.0,-0.727868,-0.009174,-0.001922,0.000276,0.357803,-1.967734,-1.0,0.0
3.73996,0.019994,-2.028841,0.174431,-1.016603,0.036991,0.520506,0.00282,-0.065461,0.004644,-9.796926,-0.006273,0.001101,-0.000268,-0.0074,0.000796,-0.000846,0.0,0.0,0.0,0.703316,-0.002613,-0.007266,0.710835,0.0,0.0,0.0,0.0,0.0,-0.72783,-0.00969,-0.004414,0.000316,0.367637,-1.96592,-1.0,0.0
3.759951,0.019991,-2.028446,0.182344,-1.01688,0.038955,0.52042,0.002844,-0.062238,0.007558,-9.791354,-0.006533,-0.00124,0.000499,-0.006093,-0.000548,-0.001143,0.0,0.0,0.0,0.703328,-0.00265,-0.007303,0.710823,0.0,0.0,0.0,0.0,0.0,-0.727762,-0.009187,-0.001843,0.00029,0.377462,-1.964058,-1.0,0.0
3.779954,0.020003,-2.027798,0.194254,-1.017271,0.042036,0.520263,0.002938,-0.056635,0.002979,-9.792994,-0.006711,-0.001139,-0.000438,-0.006816,-0.000798,-4.8e-05,0.0,0.0,0.0,0.70335,-0.0027,-0.007359,0.7108,0.0,0.0,0.0,0.0,0.0,-0.727702,-0.008537,0.000895,0.000272,0.387278,-1.962146,-1.0,0.0
3.799966,0.020012,-2.027333,0.202223,-1.017523,0.044088,0.520166,0.003001,-0.062143,0.010474,-9.79645,-0.005956,-0.001118,0.000611,-0.006456,-0.000318,0.000271,0.0,0.0,0.0,0.703358,-0.00273,-0.007396,0.710792,0.0,0.0,0.0,0.0,0.0,-0.727665,-0.009246,-0.001278,0.000299,0.397083,-1.960185,-1.0,0.0
3.820129,0.020163,-2.026579,0.214192,-1.01792,0.047194,0.520041,0.003191,-0.066021,0.005842,-9.787354,-0.005757,0.001123,0.000143,-0.005531,0.001328,0.000334,0.0,0.0,0.0,0.703375,-0.002782,-0.007441,0.710774,0.0,0.0,0.0,0.0,0.0,-0.727632,-0.009868,-0.003477,0.000338,0.406879,-1.958175,-1.0,0.0
3.839962,0.019833,-2.026032,0.222186,-1.018178,0.049231,0.519955,0.00338,-0.055565,0.013222,-9.782553,-0.006117,0.002095,-0.000301,-0.007066,0.00154,0.000734,0.0,0.0,0.0,0.703388,-0.002831,-0.007461,0.710761,0.0,0.0,0.0,0.0,0.0,-0.727601,-0.01062,-0.005851,0.000366,0.416665,-1.956116,-1.0,0.0
3.859959,0.019997,-2.025143,0.234198,-1.018622,0.052303,0.519931,0.003667,-0.063523,0.003228,-9.781572,-0.006833,-0.003292,-0.000256,-0.006612,-0.003819,-0.000898,0.0,0.0,0.0,0.7034,-0.002881,-0.007522,0.710749,0.0,0.0,0.0,0.0,0.0,-0.727546,-0.009988,-0.003075,0.000347,0.42644,-1.954008,-1.0,0.0
3.879957,0.019998,-2.024499,0.242217,-1.018926,0.054443,0.51999,0.00386,-0.060129,0.008921,-9.787279,-0.007397,-0.004554,0.000517,-0.007812,-0.004211,0.000124,0.0,0.0,0.0,0.70341,-0.002895,-0.007588,0.710738,0.0,0.0,0.0,0.0,0.0,-0.727518,-0.010594,-0.004771,0.000374,0.436205,-1.951852,-1.0,0.0
3.899958,0.020001,-2.023457,0.254264,-1.019406,0.057544,0.519979,0.004094,-0.066227,0.011703,-9.779685,-0.007673,-0.002371,0.00019,-0.007582,-0.001962,-0.000126,0.0,0.0,0.0,0.703422,-0.002933,-0.007674,0.710725,0.0,0.0,0.0,0.0,0.0,-0.727454,-0.009701,-0.00121,0.000352,0.445959,-1.949646,-1.0,0.0
3.919964,0.020006,-2.022725,0.262314,-1.019784,0.059672,0.520004,0.004392,-0.06427,0.011877,-9.776567,-0.007667,-0.001865,0.000241,-0.006785,-0.001832,-0.000756,0.0,0.0,0.0,0.703433,-0.002966,-0.007728,0.710714,0.0,0.0,0.0,0.0,0.0,-0.727416,-0.010284,-0.003022,0.00038,0.455701,-1.947392,-1.0,0.0
3.939963,0.019999,-2.021549,0.274412,-1.020299,0.062843,0.520058,0.004678,-0.060925,0.011251,-9.781032,-0.007042,-0.000694,-0.000743,-0.007069,-0.001288,0.000309,0.0,0.0,0.0,0.703453,-0.003018,-0.007792,0.710693,0.0,0.0,0.0,0.0,0.0,-0.727345,-0.009318,0.000279,0.000358,0.465433,-1.945089,-1.0,0.0
3.959957,0.019994,-2.020733,0.282475,-1.020688,0.064953,0.520114,0.004862,-0.070908,0.00267,-9.776354,-0.006624,-0.000773,0.000557,-0.006551,-0.00158,0.000755,0.0,0.0,0.0,0.703462,-0.003049,-0.007835,0.710683,0.0,0.0,0.0,0.0,0.0,-0.727301,-0.009966,-0.001509,0.000388,0.475152,-1.942738,-1.0,0.0
3.979951,0.019994,-2.019432,0.294581,-1.021274,0.068264,0.520128,0.005237,-0.064997,0.002389,-9.782585,-0.006609,2e-05,-0.000144,-0.006393,-6e-06,-0.000551,0.0,0.0,0.0,0.703475,-0.003097,-0.00789,0.710669,0.0,0.0,0.0,0.0,0.0,-0.727228,-0.009062,0.00182,0.000362,0.48486,-1.940338,-1.0,0.0
3.999957,0.020006,-2.018511,0.302653,-1.021687,0.070531,0.520192,0.005453,-0.060076,0.009077,-9.773308,-0.007739,0.00054,-0.000461,-0.007932,0.000626,0.000247,0.0,0.0,0.0,0.703487,-0.00314,-0.007927,0.710657,0.0,0.0,0.0,0.0,0.0,-0.727162,-0.009644,-4.5e-05,0.000384,0.494556,-1.937889,-1.0,0.0
